City_ID,City,Lat,Lng,Max Temp,Humidity,Cloudiness,Wind Speed,Country,Date
0,bilibino,68.0546,166.4372,9.49,58,100,3.74,RU,1722818776
1,ta`u,-14.2336,-169.5144,26.86,64,100,1.9,AS,1722818777
2,albany,42.6001,-73.9662,24.47,78,0,0.89,US,1722818748
3,port-aux-francais,-49.35,70.2167,1.82,67,10,7.32,TF,1722818779
4,longyearbyen,78.2186,15.6401,8.91,87,40,4.63,SJ,1722818780
5,binjai,3.6001,98.4854,25.97,78,100,0.83,ID,1722818781
6,olonkinbyen,70.9221,-8.7187,5.99,98,100,3.16,SJ,1722818782
7,pacific grove,36.6177,-121.9166,24.56,85,75,4.12,US,1722818784
8,hermanus,-34.4187,19.2345,8.78,67,70,8.16,ZA,1722818787
9,grytviken,-54.2811,-36.5092,-1.39,84,100,4.67,GS,1722818788
10,tiksi,71.6872,128.8694,12.65,63,100,5.26,RU,1722818790
11,waitangi,-43.9535,-176.5597,10.46,73,100,1.79,NZ,1722818791
12,guntakal junction,15.1667,77.3833,23.96,79,96,4.79,IN,1722818792
13,klyuchi,52.2667,79.1667,20.31,65,31,3.12,RU,1722818667
14,edinburgh of the seven seas,-37.0676,-12.3116,13.68,77,51,13.26,SH,1722818795
15,anadyr,64.75,177.4833,6.28,100,100,8.0,RU,1722818796
16,newman,37.3138,-121.0208,37.25,15,2,4.18,US,1722818559
17,whitehorse,60.7161,-135.0538,23.94,29,20,1.03,CA,1722818798
18,kone,-21.0595,164.8658,25.12,40,0,3.77,NC,1722818799
19,marica,-22.9194,-42.8186,24.95,83,0,4.25,BR,1722818801
20,adamstown,-25.066,-130.1015,21.15,79,100,7.69,PN,1722818802
21,dudinka,69.4058,86.1778,10.22,56,0,9.22,RU,1722818804
22,chonchi,-42.6128,-73.8092,7.56,98,100,2.41,CL,1722818775
23,zaozersk,69.4005,32.4476,7.16,93,8,2.37,RU,1722818806
24,pereiro de aguiar,42.3452,-7.8001,16.59,86,0,0.63,ES,1722818807
25,darnah,32.767,22.6367,27.0,63,0,5.24,LY,1722818809
26,bredasdorp,-34.5322,20.0403,6.83,69,18,4.66,ZA,1722818810
27,bethanie,-26.4833,17.15,5.15,90,2,1.93,NA,1722818811
28,ascension,30.2169,-90.9001,32.83,68,36,2.37,US,1722818812
29,badger,64.8,-147.5333,24.43,52,0,2.06,US,1722818814
30,likasi,-10.9814,26.7333,14.75,30,0,1.29,CD,1722818815
31,utrik,11.2278,169.8474,28.54,80,39,6.51,MH,1722818817
32,noormarkku,61.5927,21.8685,14.88,100,0,0.51,FI,1722818818
33,port blair,11.6667,92.75,26.02,94,40,0.0,IN,1722818820
34,ust-nera,64.5667,143.2,16.11,52,43,1.8,RU,1722818821
35,blackmans bay,-43.0167,147.3167,12.51,60,8,0.89,AU,1722818822
36,palu,-0.8917,119.8707,26.46,90,97,0.91,ID,1722818823
37,akureyri,65.6835,-18.0878,11.96,71,75,4.63,IS,1722818824
38,codrington,-38.2667,141.9667,11.3,56,7,2.91,AU,1722818825
39,motupe,-6.1519,-79.7142,18.01,77,53,1.9,PE,1722818826
40,atafu village,-8.5421,-172.5159,27.86,80,100,5.29,TK,1722818828
41,nabire,-3.3667,135.4833,25.96,82,100,1.19,ID,1722818829
42,karratha,-20.7377,116.8463,17.88,57,0,8.25,AU,1722818830
43,eenhana,-17.4667,16.3333,15.63,26,0,3.12,NA,1722818831
44,fortuna,40.5982,-124.1573,15.51,95,100,3.6,US,1722818832
45,margate,51.3813,1.3862,15.17,83,46,4.9,GB,1722818833
46,hawaiian paradise park,19.5933,-154.9731,27.16,86,75,3.6,US,1722818834
47,niquero,20.0431,-77.5828,27.47,82,99,1.97,CU,1722818836
48,kodiak,57.79,-152.4072,11.73,100,100,4.63,US,1722818837
49,vadso,70.0744,29.7487,10.49,100,100,5.14,NO,1722818588
50,bamboo flat,11.7,92.7167,26.05,94,40,0.0,IN,1722818808
51,vorkuta,67.5,64.0,9.01,65,64,4.86,RU,1722818841
52,sima,53.9202,102.0442,17.55,65,0,1.56,RU,1722818842
53,puerto ayora,-0.7393,-90.3518,20.31,93,49,1.79,EC,1722818843
54,oranjemund,-28.55,16.4333,10.34,76,0,2.8,NA,1722818844
55,shingu,33.7333,135.9833,30.42,70,14,2.02,JP,1722818846
56,bulgan,48.8125,103.5347,18.72,71,78,1.35,MN,1722818847
57,sidi khaled,34.387,4.9879,30.77,22,0,2.79,DZ,1722818848
58,stanley,54.868,-1.6985,15.95,92,40,3.09,GB,1722818849
59,kununurra,-15.7667,128.7333,26.99,44,3,4.12,AU,1722818850
60,walvis bay,-22.9575,14.5053,10.05,79,2,6.04,NA,1722818852
61,papatowai,-46.5619,169.4708,11.15,62,12,2.17,NZ,1722818853
62,bangor,54.6534,-5.669,18.73,95,100,3.6,GB,1722818854
63,olyokminsk,60.3736,120.4264,14.81,97,100,2.68,RU,1722818855
64,blackwater,-23.5833,148.8833,21.41,47,29,5.46,AU,1722818856
65,iskateley,67.6803,53.1512,6.19,74,89,6.33,RU,1722818857
66,kruisfontein,-34.0033,24.7314,8.27,67,5,6.58,ZA,1722818858
67,mccook,40.2019,-100.6257,36.25,24,0,6.69,US,1722818859
68,huarmey,-10.0681,-78.1522,17.03,84,6,4.84,PE,1722818860
69,nemuro,43.3236,145.575,15.43,100,100,3.67,JP,1722818862
70,udachny,66.4167,112.4,19.88,44,100,4.81,RU,1722818564
71,kalmunai,7.4167,81.8167,25.53,83,15,1.85,LK,1722818864
72,sengiley,53.9622,48.7944,17.04,94,100,1.1,RU,1722818865
73,portland,45.5234,-122.6762,34.27,35,40,4.63,US,1722818597
74,margaret river,-33.95,115.0667,15.93,78,98,6.85,AU,1722818867
75,lihue,21.9789,-159.3672,28.77,64,20,6.17,US,1722818868
76,virginia,37.5481,-77.4467,26.86,89,40,3.09,US,1722818705
77,magadan,59.5667,150.8,16.05,71,2,1.82,RU,1722818870
78,dakhla,23.6848,-15.958,20.29,94,19,3.61,EH,1722818872
79,fisterra,42.9049,-9.2629,19.45,93,0,4.15,ES,1722818873
80,puerto santa,-8.9906,-78.6456,16.88,85,21,5.79,PE,1722818875
81,cockburn town,21.4612,-71.1419,28.3,84,6,9.12,TC,1722818876
82,port moresby,-9.4431,147.1797,28.68,65,20,5.14,PG,1722818877
83,lospalos,-8.5186,127.0025,23.92,71,100,4.54,TL,1722818878
84,ushuaia,-54.8,-68.3,-0.19,59,75,3.6,AR,1722818333
85,tolanaro,-25.0319,46.9987,19.04,82,20,1.03,MG,1722818882
86,boksitogorsk,59.474,33.8485,11.45,94,45,0.91,RU,1722818883
87,canitas de felipe pescador,23.6,-102.7167,25.74,28,8,4.09,MX,1722818884
88,saint-louis,16.3333,-15.0,26.8,67,100,5.78,SN,1722818885
89,bueng kan,18.363,103.6519,26.06,88,97,0.6,TH,1722818886
90,invercargill,-46.4,168.35,11.68,72,17,3.13,NZ,1722818887
91,ribeira grande,38.5167,-28.7,24.87,95,16,3.13,PT,1722818888
92,droitwich,52.2667,-2.15,16.35,76,59,3.55,GB,1722818890
93,katsuura,35.1333,140.3,27.6,72,0,2.34,JP,1722818891
94,kerikeri,-35.2268,173.9474,14.45,56,40,2.05,NZ,1722818892
95,yellowknife,62.456,-114.3525,22.29,43,75,5.66,CA,1722818893
96,summerlin south,36.1027,-115.3811,41.5,13,0,8.3,US,1722818894
97,ola,59.5833,151.2833,15.77,74,0,2.23,RU,1722818896
98,illizi,26.4833,8.4667,31.89,19,98,1.72,DZ,1722818897
99,puerto natales,-51.7236,-72.4875,0.8,98,100,0.65,CL,1722818898
100,solvang,34.5958,-120.1377,27.29,41,0,4.12,US,1722818899
101,west island,-12.1568,96.8225,24.99,88,100,2.57,CC,1722818901
102,georgetown,5.4112,100.3354,28.96,78,20,1.03,MY,1722818902
103,hamilton,39.1834,-84.5333,29.47,67,20,3.6,US,1722818618
104,iqaluit,63.7506,-68.5145,4.85,100,100,1.03,CA,1722818904
105,severo-yeniseyskiy,60.3725,93.0408,17.92,55,51,1.37,RU,1722818905
106,tionk essil,12.7856,-16.5217,25.98,93,100,1.89,SN,1722818906
107,punta arenas,-53.15,-70.9167,0.06,93,75,1.03,CL,1722818907
108,kirkland lake,48.1446,-80.0377,19.16,48,46,1.54,CA,1722818908
109,pedro juan caballero,-22.5472,-55.7333,22.55,38,0,3.34,PY,1722818704
110,nova sintra,14.8667,-24.7167,26.68,78,100,2.42,CV,1722818911
111,puerto madryn,-42.7692,-65.0385,11.11,49,88,6.71,AR,1722818718
112,bethel,41.3712,-73.414,23.69,88,100,0.45,US,1722818914
113,lebu,-37.6167,-73.65,10.25,92,100,13.27,CL,1722818915
114,enewetak,11.3474,162.3373,28.89,76,100,4.11,MH,1722818917
115,malvan,16.0667,73.4667,26.34,88,100,5.81,IN,1722818918
116,prado,-17.3411,-39.2208,22.15,88,32,4.03,BR,1722818919
117,calabozo,8.9242,-67.4293,24.35,93,100,2.15,VE,1722818921
118,thunder bay,48.4001,-89.3168,19.99,52,75,1.03,CA,1722818922
119,isafjordur,66.0755,-23.124,8.1,85,100,8.09,IS,1722818923
120,st. john's,47.5649,-52.7093,21.66,95,75,6.69,CA,1722818717
121,juneau,58.3019,-134.4197,27.0,100,20,4.63,US,1722818925
122,quepos,9.4236,-84.1652,26.24,85,100,0.63,CR,1722818926
123,avarua,-21.2078,-159.775,25.03,69,20,3.6,CK,1722818928
124,qaqortoq,60.7167,-46.0333,6.61,80,0,2.74,GL,1722818929
125,mil'kovo,55.6078,37.7956,15.91,72,0,2.61,RU,1722818930
126,lompoc,34.6391,-120.4579,21.58,75,0,5.66,US,1722818931
127,kapuskasing,49.4169,-82.4331,19.05,45,40,5.14,CA,1722818932
128,vilyuysk,63.7553,121.6247,20.63,37,62,5.16,RU,1722818933
129,redencao,-4.2258,-38.7306,21.85,94,46,0.76,BR,1722818934
130,menongue,-14.6585,17.691,12.57,34,4,0.54,AO,1722818935
131,college,64.8569,-147.8028,24.48,53,75,2.06,US,1722818936
132,saipan,15.1355,145.701,29.39,79,20,6.69,MP,1722818937
133,brigantine,39.4101,-74.3646,25.08,90,94,3.75,US,1722818716
134,tura,25.5198,90.2201,25.5,94,100,1.46,IN,1722818940
135,ilulissat,69.2167,-51.1,8.01,81,75,0.0,GL,1722818750
136,yerofey pavlovich,53.9667,121.9667,15.92,99,100,0.42,RU,1722818942
137,hovd,48.0056,91.6419,22.14,35,0,0.41,MN,1722818943
138,cidreira,-30.1811,-50.2056,16.14,100,100,1.99,BR,1722818944
139,marovoay,-16.1,46.6333,18.43,85,17,1.86,MG,1722818945
140,roma,43.2128,-75.4557,23.74,73,81,0.45,US,1722818946
141,sao francisco do sul,-26.2433,-48.6381,19.42,100,75,4.63,BR,1722818948
142,east ballina,-28.8667,153.5833,17.67,63,100,0.37,AU,1722818949
143,tafuna,-14.3358,-170.72,29.97,66,40,3.6,AS,1722818950
144,nantucket,41.2835,-70.0995,25.56,91,0,6.69,US,1722818651
145,polyarnyy,69.1989,33.4478,7.6,86,4,0.37,RU,1722818952
146,ezanville,49.0279,2.3679,17.09,79,0,1.03,FR,1722818953
147,acapulco de juarez,16.8634,-99.8901,29.9,70,75,1.54,MX,1722818762
148,mildura,-34.2,142.15,10.6,90,100,4.81,AU,1722818955
149,new norfolk,-42.7826,147.0587,13.17,52,7,3.7,AU,1722818957
150,hadibu,12.65,54.0333,25.34,83,100,9.91,YE,1722818958
151,rio grande,-32.035,-52.0986,15.06,96,100,8.29,BR,1722818681
152,wailua homesteads,22.0669,-159.378,28.44,72,20,6.17,US,1722818890
153,pokaran,26.9167,71.9167,27.49,79,100,3.87,IN,1722818962
154,nieuw amsterdam,5.8833,-55.0833,27.09,83,20,1.54,SR,1722818963
155,kingston,17.997,-76.7936,30.53,70,20,7.72,JM,1722818162
156,brookings,44.3114,-96.7984,21.14,94,75,4.12,US,1722818965
157,kearney,40.6995,-99.0815,32.4,57,0,5.14,US,1722818528
158,piacabucu,-10.4056,-36.4344,23.64,71,0,4.12,BR,1722818968
159,pipraich,26.8264,83.53,27.72,85,100,1.92,IN,1722818969
160,montego bay,18.4712,-77.9188,29.89,79,20,2.57,JM,1722818897
161,dzilam gonzalez,21.2833,-88.9333,26.24,84,7,1.38,MX,1722818971
162,mawu,34.4307,104.9176,16.94,86,72,2.48,CN,1722818972
163,timmins,48.4669,-81.3331,20.9,37,40,3.6,CA,1722818827
164,freetown,8.484,-13.2299,25.84,83,75,3.6,SL,1722818975
165,gravenhurst,44.9168,-79.3663,24.76,64,0,2.57,CA,1722818976
166,port lincoln,-34.7333,135.8667,12.73,70,8,1.86,AU,1722818977
167,manta,-0.95,-80.7333,23.88,78,75,5.66,EC,1722818978
168,sisimiut,66.9395,-53.6735,8.89,76,100,0.83,GL,1722818979
169,dwarka,22.2394,68.9678,27.9,86,100,7.54,IN,1722818980
170,beitbridge,-22.2167,30.0,18.21,20,0,1.76,ZW,1722818981
171,delta,5.5,6.0,22.77,94,100,1.16,NG,1722818982
172,sefaatli,39.5043,34.7563,18.79,57,0,1.96,TR,1722818984
173,santa cruz,-17.8,-63.1667,23.7,83,20,3.09,BO,1722818921
174,broome,42.2506,-75.833,23.33,79,0,1.51,US,1722818986
175,cooper's town,26.8667,-77.5167,29.17,78,100,8.29,BS,1722818987
176,zag,46.9441,99.165,15.73,56,0,0.7,MN,1722818988
177,al ghayzah,16.2079,52.176,24.61,85,27,3.58,YE,1722818989
178,port elizabeth,-33.918,25.5701,11.16,57,0,7.72,ZA,1722818991
179,nalut,30.3333,10.85,24.47,65,0,5.07,LY,1722818992
180,arraial do cabo,-22.9661,-42.0278,22.48,90,0,11.11,BR,1722818857
181,vrangel',42.7297,133.0839,18.71,76,100,6.56,RU,1722818860
182,berbera,10.4396,45.0143,31.85,51,82,3.51,SO,1722818995
183,markaz-e hukumat-e darweshan,31.1323,64.1934,30.4,48,43,5.66,AF,1722818997
184,tekeli,44.83,78.8239,24.54,29,77,3.15,KZ,1722818998
185,palembang,-2.9167,104.7458,25.86,84,5,2.59,ID,1722818999
186,inhambane,-23.865,35.3833,18.58,77,50,5.43,MZ,1722819001
187,i-n-salah,27.1935,2.4607,36.69,11,2,5.1,DZ,1722819002
188,keetmanshoop,-26.5833,18.1333,6.05,91,15,3.07,NA,1722819003
189,sinabang,2.4803,96.3801,26.93,83,57,1.52,ID,1722819005
190,horta,38.5333,-28.6333,24.45,95,31,3.13,PT,1722819006
191,constantia,44.1833,28.65,19.38,72,5,4.22,RO,1722819007
192,howard springs,-12.497,131.047,26.95,86,31,3.36,AU,1722819008
193,acarau,-2.8856,-40.12,25.0,83,4,7.09,BR,1722819010
194,pisco,-13.7,-76.2167,16.68,88,0,3.6,PE,1722819011
195,oswestry,52.862,-3.055,16.82,95,18,3.14,GB,1722819012
196,shafter,35.5005,-119.2718,41.86,11,100,4.31,US,1722819013
197,khor,47.8861,134.9464,21.53,87,100,3.01,RU,1722819014
198,broken hill,-31.95,141.4333,10.76,83,100,3.58,AU,1722819015
199,turgen,43.4006,77.5933,21.07,30,100,2.8,KZ,1722819016
200,kurumkan,54.3,110.3,22.08,54,2,0.93,RU,1722819017
201,pushkar,26.5,74.55,25.58,89,96,4.18,IN,1722819018
202,san patricio,28.017,-97.5169,31.94,58,5,5.07,US,1722819020
203,remire-montjoly,4.9167,-52.2667,27.02,89,0,1.03,GF,1722819021
204,altay,47.8667,88.1167,24.08,23,6,0.99,CN,1722819022
205,pervomayskoye,43.919,46.7102,22.53,75,0,3.28,RU,1722819023
206,santana,-0.0583,-51.1817,29.1,84,20,5.66,BR,1722819024
207,gaitania,3.0906,-75.6723,14.36,95,98,2.31,CO,1722819025
208,keflavik,64.0049,-22.5624,11.95,87,100,8.23,IS,1722819026
209,nago,26.5881,127.9761,32.86,73,91,5.78,JP,1722819027
210,san pedro,14.35,121.0167,27.97,87,75,5.14,PH,1722819029
211,north platte,41.1239,-100.7654,35.94,30,0,4.63,US,1722819030
212,kumagunnam,13.1551,10.6342,25.72,72,99,5.82,NG,1722819031
213,colonia,50.9333,6.95,17.68,83,97,1.57,DE,1722819002
214,salakhid,32.8727,36.5727,20.94,53,0,5.18,SY,1722819033
215,fort bragg,35.139,-79.006,25.67,91,20,1.54,US,1722818968
216,saint-francois,46.4154,3.9054,14.82,100,0,1.54,FR,1722819036
217,luderitz,-26.6481,15.1594,12.39,76,0,5.67,NA,1722819037
218,talnakh,69.4865,88.3972,12.33,54,0,5.41,RU,1722819038
219,port mathurin,-19.6833,63.4167,22.11,73,5,6.41,MU,1722819039
220,sabang,5.8933,95.3214,28.5,75,99,7.72,ID,1722819040
221,geraldton,-28.7667,114.6,10.23,87,0,4.63,AU,1722819041
222,wakkanai,45.4094,141.6739,14.99,94,75,5.66,JP,1722819042
223,huancabamba,-5.2386,-79.4506,14.7,90,29,2.11,PE,1722819044
224,nadym,65.5333,72.5167,12.93,62,100,7.41,RU,1722819045
225,the pas,53.8251,-101.2541,23.01,35,0,1.54,CA,1722819046
226,sao gabriel da cachoeira,-0.1303,-67.0892,23.97,89,84,0.76,BR,1722819047
227,santo antonio do ica,-3.1022,-67.9397,24.07,95,100,1.38,BR,1722819048
228,dongola,19.1667,30.4833,28.43,72,18,5.42,SD,1722819049
229,alice springs,-23.7,133.8833,10.75,87,100,3.09,AU,1722819050
230,santa marta,11.2408,-74.199,31.03,70,20,2.06,CO,1722819051
231,nuuk,64.1835,-51.7216,6.34,87,100,3.09,GL,1722819052
232,namibe,-15.1961,12.1522,15.56,89,0,1.55,AO,1722818986
233,muktsar,30.4833,74.5167,28.17,79,15,2.79,IN,1722819055
234,ji'an,27.1172,114.9793,33.04,63,15,2.91,CN,1722819056
235,quelimane,-17.8786,36.8883,16.97,93,0,1.03,MZ,1722819057
236,sanya,18.2431,109.505,31.09,74,0,1.0,CN,1722819058
237,behbahan,30.5959,50.2417,31.38,16,0,1.72,IR,1722819060
238,lorengau,-2.0226,147.2712,28.13,79,77,3.38,PG,1722819061
239,tres arroyos,-38.3739,-60.2798,10.02,48,76,4.14,AR,1722819063
240,ulsan,35.5372,129.3167,30.86,65,0,1.71,KR,1722819064
241,manokwari,-0.8667,134.0833,24.02,91,100,1.22,ID,1722818880
242,sinop,41.7711,34.8709,18.6,55,42,1.04,TR,1722819066
243,prince george,53.9166,-122.753,22.69,49,0,6.69,CA,1722819004
244,bubaque,11.2833,-15.8333,26.42,81,100,3.43,GW,1722819068
245,entebbe,0.0644,32.4469,20.18,94,20,1.03,UG,1722819069
246,tambacounda,13.7539,-13.7586,25.03,100,20,1.03,SN,1722819071
247,mhango,-3.2833,32.85,17.2,40,6,1.7,TZ,1722819072
248,penn yan,42.6609,-77.0539,24.51,53,11,1.98,US,1722819073
249,la'ie,21.6477,-157.9253,30.98,69,5,2.24,US,1722819065
250,khandyga,62.6667,135.6,20.89,40,89,3.05,RU,1722819075
251,kenai,60.5544,-151.2583,21.12,59,0,2.57,US,1722819076
252,tazacorte,28.629,-17.9293,22.54,94,75,6.17,ES,1722819077
253,palmer,42.1584,-72.3287,22.78,81,75,3.09,US,1722818806
254,bowen,-20.0167,148.2333,21.68,63,99,4.92,AU,1722819080
255,guerrero negro,27.9769,-114.0611,23.23,72,17,6.44,MX,1722818790
256,flying fish cove,-10.4217,105.6791,23.82,88,75,3.6,CX,1722818862
257,placido de castro,-10.3353,-67.1856,27.27,56,75,1.16,BR,1722819083
258,katsuren-haebaru,26.3369,127.8719,32.83,71,75,6.17,JP,1722819084
259,nouadhibou,20.931,-17.0347,23.99,88,40,4.63,MR,1722819085
260,quellon,-43.1167,-73.6167,7.46,94,100,3.13,CL,1722818775
261,dali,25.7,100.1833,18.42,90,100,0.45,CN,1722819088
262,okazaki,34.95,137.1667,35.99,50,5,1.84,JP,1722819089
263,kananga,-5.8958,22.4178,21.19,31,79,0.55,CD,1722819090
264,meulaboh,4.1363,96.1285,25.34,89,100,1.25,ID,1722819073
265,luwuk,-0.9516,122.7875,25.89,74,100,3.28,ID,1722819092
266,butterworth,5.3991,100.3638,29.02,78,20,1.03,MY,1722819093
267,coronel dorrego,-38.7187,-61.2873,10.83,48,98,4.73,AR,1722819094
268,happy valley-goose bay,53.3168,-60.3315,23.17,46,40,2.57,CA,1722819095
269,puerto cabezas,14.0351,-83.3888,26.36,87,2,2.26,NI,1722819096
270,coondapoor,13.6333,74.7,23.95,93,87,1.83,IN,1722819098
271,mojo,8.6,39.1167,16.67,92,100,1.93,ET,1722819099
272,porto novo,6.4965,2.6036,23.98,82,26,3.15,BJ,1722819100
273,riyadh,24.6877,46.7219,32.08,18,100,4.19,SA,1722818823
274,south grafton,-29.7,152.95,18.04,59,100,1.68,AU,1722819102
275,petropavlovsk-kamchatsky,53.0452,158.6483,19.33,60,20,3.0,RU,1722819064
276,mount gambier,-37.8333,140.7667,12.27,52,8,1.54,AU,1722819105
277,saint-philippe,-21.3585,55.7679,18.77,76,31,2.52,RE,1722819106
278,sim,54.993,57.6982,14.5,98,100,1.6,RU,1722819107
279,rabo de peixe,37.8,-25.5833,22.73,88,20,1.54,PT,1722819108
280,lata,40.1629,-8.3327,17.26,97,35,0.93,PT,1722819109
281,amga,60.8953,131.9608,20.42,46,100,4.82,RU,1722819110
282,yarmouth,41.7057,-70.2286,25.56,89,100,7.2,US,1722819111
283,okha,53.5739,142.9478,15.33,61,100,7.8,RU,1722819113
284,sancti spiritus,21.9297,-79.4425,25.3,91,100,1.57,CU,1722819114
285,kapa'a,22.0752,-159.319,29.18,70,20,6.17,US,1722819115
286,krasnovishersk,60.4078,57.082,13.46,99,97,1.36,RU,1722819116
287,manismata,-2.4667,111.0333,26.25,73,18,2.39,ID,1722819117
288,cooma,-36.2333,149.1333,7.13,53,100,1.7,AU,1722819118
289,makar'yev,57.8797,43.8069,13.15,96,70,1.75,RU,1722819119
290,nar'yan-mar,67.6713,53.087,6.16,74,94,6.35,RU,1722819120
291,igarka,67.4667,86.5833,9.55,64,48,6.2,RU,1722819121
292,papao,-17.75,-149.55,26.82,73,6,5.83,PF,1722819124
293,pointe aux piments,-20.0628,57.5131,19.18,85,0,3.67,MU,1722819125
294,tercan,39.7794,40.3925,15.16,65,0,0.57,TR,1722819126
295,thompson,55.7435,-97.8558,21.09,35,40,4.63,CA,1722818877
296,aridaia,40.9731,22.0564,25.08,52,59,4.93,GR,1722819128
297,saltillo,25.4167,-101.0,26.68,45,0,6.17,MX,1722818991
298,betanzos,43.2804,-8.2147,20.51,92,100,2.57,ES,1722819130
299,salalah,17.0151,54.0924,25.05,94,100,1.03,OM,1722819132
300,klaksvik,62.2266,-6.589,12.51,98,100,14.49,FO,1722819133
301,port hedland,-20.3167,118.5667,18.03,55,0,7.2,AU,1722819134
302,colesberg,-30.72,25.0972,4.3,80,1,4.54,ZA,1722819135
303,vila franca do campo,37.7167,-25.4333,23.23,90,2,1.69,PT,1722819136
304,san-pedro,4.7485,-6.6363,24.06,84,100,2.37,CI,1722819137
305,pemangkat,1.1667,108.9667,27.27,80,13,2.46,ID,1722819138
306,mount pearl,47.5166,-52.7813,21.19,95,75,6.69,CA,1722819140
307,smirnykh,49.75,142.8333,17.89,64,100,2.66,RU,1722819141
308,frederikshavn,57.4407,10.5366,14.83,81,64,5.6,DK,1722819142
309,sitka,57.0531,-135.33,25.94,36,0,3.09,US,1722819143
310,toliara,-23.35,43.6667,18.63,61,0,2.31,MG,1722819144
311,mata-utu,-13.2816,-176.1745,27.0,73,100,3.1,WF,1722819145
312,hithadhoo,-0.6,73.0833,28.64,74,100,3.89,MV,1722818769
313,pingliang,35.5392,106.6861,23.26,75,100,1.63,CN,1722819147
314,jincheng,35.5022,112.8328,28.19,58,1,1.92,CN,1722819149
315,salekhard,66.53,66.6019,8.64,65,100,9.43,RU,1722819150
316,sandnessjoen,66.0217,12.6316,16.29,76,30,5.54,NO,1722819151
317,morehead,37.2711,-87.1764,27.86,82,0,0.0,US,1722819013
318,puerto aysen,-45.4,-72.7,3.01,99,100,1.38,CL,1722818892
319,ebaye,8.7748,167.7392,30.01,79,40,3.09,MH,1722819154
320,naze,28.3667,129.4833,31.51,72,15,6.71,JP,1722819155
321,labytnangi,66.6572,66.4183,9.35,61,100,9.14,RU,1722819156
322,izluchinsk,60.9794,76.9242,16.01,89,100,1.14,RU,1722819157
323,plastun,44.7561,136.2939,19.21,54,100,2.18,RU,1722819159
324,cambebba,-3.6209,-38.8291,28.76,80,8,5.44,BR,1722819160
325,palikir - national government center,6.9248,158.1611,31.41,70,75,4.12,FM,1722819161
326,castillos,-34.1667,-53.8333,10.17,83,99,2.03,UY,1722819162
327,masterton,-40.9597,175.6575,11.6,69,100,1.75,NZ,1722819163
328,puerto baquerizo moreno,-0.9,-89.6,19.64,85,26,5.63,EC,1722819164
329,torshalla,59.4167,16.4667,15.5,97,35,1.15,SE,1722819166
330,rongelap,11.1635,166.8941,28.73,78,73,6.46,MH,1722819168
331,coahuayana de hidalgo,18.7,-103.6583,27.31,83,100,1.49,MX,1722819191
332,bocas del toro,9.3333,-82.25,26.14,79,80,1.79,PA,1722819192
333,amparafaravola,-17.5833,48.2167,13.52,87,100,1.28,MG,1722819193
334,ghadamis,30.1337,9.5007,27.13,50,0,4.65,LY,1722819195
335,jizzax,40.1158,67.8422,24.71,25,2,2.67,UZ,1722819196
336,mitsamiouli,-11.3847,43.2844,24.44,62,1,2.69,KM,1722819197
337,mariental,-24.6333,17.9667,6.56,87,95,3.6,NA,1722819198
338,poronaysk,49.2167,143.1167,13.99,80,100,1.19,RU,1722819199
339,greenville,35.6127,-77.3663,26.09,97,100,4.12,US,1722818972
340,bhamo,24.2667,97.2333,24.61,96,100,0.35,MM,1722819201
341,yung shue wan,22.2333,114.1167,33.22,79,91,3.96,HK,1722819202
342,fort frances,48.5999,-93.4003,21.12,61,94,1.54,CA,1722819203
343,port alfred,-33.5906,26.891,12.61,60,1,10.61,ZA,1722819205
344,rabigh,22.7986,39.0349,31.62,75,96,1.85,SA,1722819206
345,stary krym,45.0333,35.1,18.14,90,52,2.18,UA,1722819207
346,barclayville,4.6797,-8.2339,23.32,88,53,1.18,LR,1722819208
347,muriae,-21.1306,-42.3664,18.99,85,0,2.33,BR,1722819030
348,aasiaat,68.7098,-52.8699,2.07,91,1,2.45,GL,1722819210
349,jamestown,42.097,-79.2353,23.8,60,0,2.57,US,1722819211
350,runka,12.4479,7.3092,23.08,87,97,4.84,NG,1722819212
351,lugulu,0.3936,34.3053,17.01,85,57,1.34,KE,1722819213
352,taulaga,-11.0553,-171.0883,27.09,81,100,5.6,AS,1722819215
353,dryden,49.7833,-92.7503,19.16,55,75,2.06,CA,1722819216
354,kalabo,-14.97,22.6814,15.07,28,5,2.01,ZM,1722819217
355,veinticinco de mayo,-35.4323,-60.1727,9.99,66,3,0.45,AR,1722818947
356,tindouf,27.6711,-8.1474,37.25,8,0,2.06,DZ,1722819219
357,birzebbuga,35.8258,14.5269,26.2,88,20,1.54,MT,1722819220
358,knysna,-34.0363,23.0471,8.24,72,4,3.73,ZA,1722819223
359,merizo village,13.2658,144.6691,29.43,85,100,4.93,GU,1722819224
360,rijau,11.103,5.2507,21.95,93,72,1.86,NG,1722819225
361,posto fiscal rolim de moura,-13.0833,-62.2667,28.36,38,59,0.83,BR,1722819226
362,la passe,45.5549,-0.8967,19.13,91,0,2.84,FR,1722819228
363,amal,59.051,12.7049,15.21,90,2,2.88,SE,1722819229
364,kulhudhuffushi,6.6221,73.07,27.67,78,100,4.39,MV,1722819230
365,bardai,11.65,7.2333,21.04,92,88,3.77,NG,1722819231
366,taichung,24.1469,120.6839,32.7,73,40,1.54,TW,1722819233
367,garissa,-0.4536,39.6401,21.7,80,26,5.87,KE,1722819234
368,bocaiuva,-17.1078,-43.815,22.84,61,1,4.0,BR,1722819235
369,touros,-5.1989,-35.4608,23.33,82,16,5.36,BR,1722818955
370,tocopilla,-22.092,-70.1979,16.62,75,35,2.54,CL,1722819237
371,pangoa,-12.1167,-73.0,22.62,70,8,1.56,PE,1722819239
372,taro,-8.3862,115.28,24.0,66,52,1.68,ID,1722819240
373,haiku-pauwela,20.9219,-156.3051,29.03,61,20,10.29,US,1722819241
374,nakamura,32.9833,132.9333,32.42,65,0,1.84,JP,1722819243
375,sterling,39.0062,-77.4286,27.53,77,0,2.06,US,1722819244
376,fort mcmurray,56.7268,-111.381,24.77,31,0,2.57,CA,1722819245
377,baiti,13.745,-14.7482,23.58,97,100,2.96,SN,1722819246
378,holmestrand,59.4876,10.3176,14.11,50,7,1.51,NO,1722819247
379,la ronge,55.1001,-105.2842,21.14,35,100,2.06,CA,1722819069
380,island harbour,50.724,-1.2758,16.68,75,23,1.34,GB,1722819250
381,neftcala,39.3742,49.2472,25.98,75,0,2.68,AZ,1722819251
382,yermentau,51.6214,73.1069,16.3,75,48,3.14,KZ,1722819252
383,noosa heads,-26.3833,153.15,19.63,56,39,3.73,AU,1722819253
384,kas,36.2018,29.6377,28.01,43,0,1.78,TR,1722819255
385,trincomalee,8.5711,81.2335,26.29,84,15,5.44,LK,1722819256
386,sedan,49.6667,5.0,13.93,99,49,0.64,FR,1722819257
387,hinton,53.4001,-117.5857,14.33,97,100,1.79,CA,1722819043
388,okhotsk,59.3833,143.3,16.54,64,98,2.55,RU,1722819259
389,arawa,-6.2132,155.5367,30.02,70,9,0.86,PG,1722819260
390,tamanrasset,22.785,5.5228,25.95,17,0,2.57,DZ,1722819261
391,mukwonago,42.8667,-88.3334,26.7,77,40,0.0,US,1722819263
392,peace river,56.2501,-117.286,18.17,77,100,5.66,CA,1722819099
393,ust-tsilma,65.441,52.1498,14.71,79,100,4.19,RU,1722819265
394,singarayakonda,15.25,80.0333,29.02,65,20,4.49,IN,1722819266
395,zhangye,38.9342,100.4517,28.04,19,100,3.5,CN,1722819267
396,sampang,-7.1872,113.2394,26.46,65,11,4.08,ID,1722819268
397,gorlitz,51.1552,14.9885,16.25,84,84,0.45,DE,1722819269
398,san antonio de pale,-1.4014,5.6325,22.19,70,83,2.87,GQ,1722819270
399,el alto,-4.2714,-81.2147,19.81,84,40,7.73,PE,1722819272
400,vilyuchinsk,52.9306,158.4028,20.15,73,100,2.35,RU,1722819273
401,saint-joseph,-21.3667,55.6167,18.21,76,21,2.72,RE,1722819274
402,minas de marcona,-15.2119,-75.1103,10.83,86,48,4.89,PE,1722819275
403,nova vicosa,-17.8919,-39.3719,22.34,87,6,3.22,BR,1722819276
404,vila velha,-20.3297,-40.2925,21.08,97,75,1.79,BR,1722819277
405,watampone,-4.5386,120.3279,26.88,75,100,3.73,ID,1722819278
406,divnoye,45.9089,43.3547,24.7,44,0,4.01,RU,1722819279
407,salem,11.65,78.1667,23.56,96,100,0.63,IN,1722818742
408,askino,56.0901,56.5783,15.21,95,100,3.41,RU,1722819283
409,bengkulu,-3.8004,102.2655,24.81,90,33,3.53,ID,1722819284
410,gangtok,27.3333,88.6167,21.51,92,100,0.41,IN,1722819285
411,kamal,-7.1678,112.7192,25.94,66,15,1.35,ID,1722819286
412,saldanha,-33.0117,17.9442,4.03,60,10,3.1,ZA,1722819287
413,vera cruz,-12.6333,-41.0333,18.06,84,16,3.25,BR,1722819288
414,tazovsky,67.4667,78.7,7.47,68,97,5.87,RU,1722819291
415,ketchikan,55.3422,-131.6461,25.26,41,0,5.66,US,1722819292
416,trairi,-3.2778,-39.2689,25.29,81,6,5.37,BR,1722819277
417,harper,4.375,-7.7169,24.38,83,100,3.09,LR,1722819294
418,el galpon,-25.3807,-64.6526,15.28,45,0,1.71,AR,1722819295
419,san ignacio de velasco,-16.3667,-60.95,26.87,39,78,1.44,BO,1722819257
420,comrat,46.3003,28.6572,17.6,80,29,2.61,MD,1722819297
421,along,28.1667,94.7667,22.61,95,64,0.15,IN,1722819299
422,sonoita,31.85,-112.8333,37.8,33,1,6.35,MX,1722819300
423,cianorte,-23.6633,-52.605,21.25,43,0,2.37,BR,1722819253
424,noumea,-22.2763,166.4572,22.78,99,8,6.54,NC,1722819303
425,maridi,4.9158,29.4742,18.91,98,76,1.63,SS,1722819304
426,swiebodzin,52.2475,15.5336,15.2,91,100,4.28,PL,1722819306
427,aykhal,66.0,111.5,20.58,40,36,6.61,RU,1722819307
428,eirunepe,-6.6603,-69.8736,22.86,92,39,1.04,BR,1722819308
429,cidade velha,14.9167,-23.6167,27.26,78,20,2.06,CV,1722819309
430,awjilah,29.1081,21.2869,27.5,45,0,3.19,LY,1722819311
431,coquimbo,-29.9533,-71.3436,12.21,73,75,2.06,CL,1722819156
432,creston,41.0586,-94.3614,32.06,48,8,3.74,US,1722819314
433,portoviejo,-1.05,-80.45,23.67,85,74,2.06,EC,1722818880
434,adolfo ruiz cortines,25.75,-108.75,33.34,47,7,4.0,MX,1722819317
435,potenza,40.6443,15.8086,18.68,82,11,1.08,IT,1722819318
436,essaouira,31.5125,-9.77,21.72,88,0,2.06,MA,1722819320
437,zanjan,36.6736,48.4787,19.88,51,0,2.86,IR,1722819321
438,ancud,-41.8697,-73.8203,7.98,91,100,8.32,CL,1722819322
439,el calafate,-50.3408,-72.2768,0.4,94,96,2.82,AR,1722819325
440,nili,33.7218,66.1302,18.84,25,0,2.67,AF,1722819326
441,tommot,58.9564,126.2925,15.44,97,100,2.14,RU,1722819327
442,carutapera,-1.195,-46.02,25.45,82,6,2.99,BR,1722819329
443,skelleftea,64.7507,20.9528,15.0,100,75,1.54,SE,1722819330
444,afaahiti,-17.75,-149.2833,25.93,74,6,5.05,PF,1722819332
445,ciudad lazaro cardenas,17.9583,-102.2,27.97,80,100,3.48,MX,1722819112
446,ghat,24.9647,10.1728,31.69,13,0,1.77,LY,1722819335
447,puerto san jose,13.9256,-90.8244,30.03,75,75,2.06,GT,1722819336
448,santo tome,-31.6627,-60.7653,14.45,59,2,1.79,AR,1722819338
449,lokot',52.565,34.5776,16.82,71,100,1.95,RU,1722819339
450,sao miguel do iguacu,-25.3481,-54.2378,20.49,36,100,2.69,BR,1722819340
451,ongjin,37.9347,125.3619,28.13,82,93,4.36,KP,1722819341
452,wuyang,31.9925,116.2472,32.29,68,100,1.81,CN,1722819342
453,aksu,41.1231,80.2644,24.42,45,0,2.15,CN,1722819343
454,mili,6.0815,171.735,28.61,77,34,6.35,MH,1722819344
455,baukau,51.5526,7.2042,17.73,83,94,0.94,DE,1722819346
456,morehead city,34.7229,-76.726,28.0,86,0,6.69,US,1722819127
457,thabazimbi,-24.5917,27.4116,15.65,26,7,2.17,ZA,1722819348
458,tsiombe,-25.3,45.4833,15.55,93,1,1.48,MG,1722819349
459,rouissat,31.9243,5.3502,33.04,25,0,2.57,DZ,1722819350
460,boquete,8.7833,-82.4333,17.78,88,100,0.45,PA,1722819351
461,subaykhan,34.8544,40.6083,29.39,46,0,6.19,SY,1722819352
462,tagiura,32.8817,13.3506,26.77,81,1,4.29,LY,1722819353
463,neryungri,56.6709,124.6491,13.36,99,100,0.53,RU,1722819354
464,sao tome,0.3365,6.7273,23.23,78,88,3.63,ST,1722819357
465,tual,-5.6667,132.75,25.22,85,86,8.95,ID,1722819065
466,kogalym,62.2654,74.4791,18.64,79,100,0.83,RU,1722819360
467,gilau,46.7324,23.3617,18.25,86,100,2.26,RO,1722819361
468,siwa oasis,29.2041,25.5195,29.01,36,13,2.6,EG,1722819364
469,nyurba,63.2842,118.3319,19.99,47,19,3.28,RU,1722819365
470,morristown,36.214,-83.2949,26.53,77,0,0.0,US,1722819073
471,kristiansund,63.1115,7.732,16.03,93,100,1.03,NO,1722819367
472,silves,37.1892,-8.4382,21.96,48,0,3.09,PT,1722819368
473,plainview,40.7765,-73.4673,23.75,91,0,2.06,US,1722819261
474,campbellsville,37.3434,-85.3419,26.77,84,4,1.28,US,1722819184
475,arish,31.1316,33.7984,24.62,71,0,1.94,EG,1722819372
476,selfoss,63.9331,-20.9971,11.14,75,100,12.43,IS,1722819373
477,muar,2.0442,102.5689,26.02,75,100,1.65,MY,1722819374
478,itoman,26.1247,127.6694,32.83,73,40,7.72,JP,1722819375
479,buncrana,55.1333,-7.45,18.01,97,100,4.78,IE,1722819377
480,las khorey,11.1595,48.1967,31.67,53,98,4.5,SO,1722819378
481,fale old settlement,-9.3852,-171.2468,27.68,81,100,6.4,TK,1722819379
482,ilha de mocambique,-15.0342,40.7358,22.08,79,93,1.18,MZ,1722819381
483,miri,4.4148,114.0089,25.08,88,40,1.54,MY,1722819382
484,saint michael,45.21,-93.665,25.99,78,0,3.09,US,1722819309
485,ambovombe,-25.1667,46.0833,16.39,89,1,2.59,MG,1722819384
486,xinshi,31.047,113.141,30.29,72,57,4.57,CN,1722819385
487,macia,-25.0269,33.0989,19.64,31,5,1.44,MZ,1722819387
488,karachi,24.9056,67.0822,27.9,89,75,3.09,PK,1722819388
489,camalu,30.85,-116.0667,28.7,73,100,4.22,MX,1722819389
490,fort st. john,56.2499,-120.8529,12.94,88,75,3.09,CA,1722819390
491,basoko,1.2391,23.616,22.02,95,100,1.83,CD,1722819391
492,tobelo,1.7284,128.0095,27.65,77,100,1.84,ID,1722819392
493,diego de almagro,-26.3667,-70.05,12.23,58,0,0.47,CL,1722819394
494,sao paulo de olivenca,-3.3783,-68.8725,23.43,94,93,0.64,BR,1722819395
495,neyriz,29.1988,54.3278,28.32,19,95,1.34,IR,1722819396
496,muromtsevo,56.3724,75.2418,16.15,93,81,1.93,RU,1722819397
497,sadjoavato,-12.6334,49.349,17.15,90,30,1.36,MG,1722819398
498,saint-pierre,-21.3393,55.4781,18.82,55,40,3.6,RE,1722819400
499,kencong,-8.2833,113.3667,24.91,71,46,0.74,ID,1722819401
500,gros islet,14.0667,-60.95,28.9,89,75,5.14,LC,1722819402
501,onsala,57.4253,12.029,14.84,86,98,3.62,SE,1722819404
502,tuy hoa,13.0833,109.3,29.66,66,6,4.26,VN,1722819405
503,malango,-2.9627,119.9001,23.88,73,98,1.46,ID,1722819406
504,rubio,7.7013,-72.3557,25.11,57,100,2.06,VE,1722819407
505,norfolk,42.1668,-71.2495,23.23,95,100,0.45,US,1722819408
506,basco,20.4487,121.9702,29.06,72,69,3.04,PH,1722819409
507,sao joao da barra,-21.6403,-41.0511,22.05,82,0,6.86,BR,1722819410
508,chirilagua,13.2203,-88.1386,24.58,91,89,0.7,SV,1722819411
509,west bay,19.3667,-81.4167,30.04,79,40,2.06,KY,1722819412
510,aral,40.5156,81.2636,26.86,36,100,0.6,CN,1722819415
511,kirakira,-10.4544,161.9205,26.14,88,100,6.06,SB,1722819416
512,gonabad,34.3529,58.6837,26.75,18,9,7.46,IR,1722819417
513,valley city,46.9233,-98.0032,20.29,77,0,3.6,US,1722819234
514,funafuti,-8.5243,179.1942,27.0,89,100,1.03,TV,1722819419
515,pavilosta,56.8879,21.1859,12.95,83,100,2.32,LV,1722819420
516,holualoa,19.6228,-155.9522,26.91,82,75,5.14,US,1722819421
517,jingmen,31.0336,112.2047,29.76,74,100,1.55,CN,1722819422
518,thal,35.4791,72.2439,16.84,85,77,0.77,PK,1722819424
519,maceio,-9.6658,-35.7353,21.69,100,75,0.0,BR,1722819425
520,gadzhiyevo,69.2551,33.3362,7.19,88,3,0.83,RU,1722819426
521,hailar,49.2,119.7,19.44,79,100,5.32,CN,1722819427
522,axum,14.1245,38.7244,15.04,86,98,1.72,ET,1722819428
523,rehti,22.7333,77.4333,23.56,97,100,3.92,IN,1722819429
524,arauca,7.0847,-70.7591,28.0,89,100,0.51,CO,1722819430
525,dokkum,53.3222,5.997,17.22,86,100,1.54,NL,1722819432
526,tagaw-bay,35.6994,66.0616,17.65,37,0,0.88,AF,1722819434
527,lanivtsi,49.8633,26.0908,18.26,59,100,2.62,UA,1722819435
528,minas de barroteran,27.6333,-101.2833,34.7,28,0,5.95,MX,1722819436
529,malindi,-3.2175,40.1191,23.31,74,9,5.82,KE,1722819437
530,san luis de la loma,17.2706,-100.8939,26.46,88,100,3.14,MX,1722819390
531,havre,49.5833,0.3333,12.87,88,0,1.03,FR,1722819439
532,kakamega,0.2842,34.7523,18.29,90,56,1.92,KE,1722819440
533,east end,34.5507,-92.341,30.92,70,0,2.23,US,1722819442
534,serdar,38.9764,56.2757,28.47,51,3,2.81,TM,1722819444
535,izbiceni,43.8333,24.65,20.34,61,100,1.72,RO,1722819445
536,ryotsu-minato,38.0833,138.4333,26.48,88,54,3.43,JP,1722819446
537,giyani,-23.3025,30.7187,19.41,22,8,1.97,ZA,1722819447
538,tabou,4.423,-7.3528,24.32,84,100,2.58,CI,1722819448
539,ibiza,38.9088,1.433,26.07,85,0,1.03,ES,1722819240
540,veraval,20.9,70.3667,27.47,88,100,7.29,IN,1722819450
541,kitaibaraki,36.7833,140.75,30.14,84,99,0.45,JP,1722819452
542,marathon,44.9,-89.7668,26.86,73,0,1.54,US,1722819453
543,labuan bajo,-8.4964,119.8877,26.53,60,11,0.97,ID,1722819454
544,sos'va,59.1766,61.8558,14.13,96,69,1.29,RU,1722819455
545,sarishabari,24.7333,89.8333,28.26,81,98,3.6,BD,1722819456
546,reggane,26.7158,0.1714,37.89,10,54,3.7,DZ,1722819457
547,puerto deseado,-47.7503,-65.8938,5.0,95,95,4.79,AR,1722819458
548,hammerfest,70.6634,23.6821,19.25,63,0,2.57,NO,1722819460
549,mhangura,-16.8939,30.1683,11.78,32,6,0.9,ZW,1722819461
550,nchelenge,-9.3451,28.734,17.28,34,24,1.28,ZM,1722819462
551,carlsbad,33.1581,-117.3506,33.76,69,0,4.63,US,1722819337
552,laranjeiras do sul,-25.4078,-52.4161,20.38,57,100,2.4,BR,1722819465
553,tekkali,18.6167,84.2333,26.97,86,100,1.86,IN,1722819467
554,san fernando,15.0286,120.6898,28.85,73,100,2.0,PH,1722819468
555,yakakent,41.6325,35.5289,23.5,51,39,1.16,TR,1722819469
556,mittweida,50.9833,12.9833,16.08,95,100,2.56,DE,1722819470
557,tema,5.667,-0.0166,24.23,94,75,4.12,GH,1722819471
558,diapaga,12.0708,1.7889,23.04,91,99,2.46,BF,1722819472
559,seymour,38.9592,-85.8903,28.38,67,27,1.32,US,1722819267
560,debila,33.5167,6.95,31.04,25,0,1.54,DZ,1722819475
561,kidal,18.4411,1.4078,31.31,46,90,4.49,ML,1722819476
562,pindushi,62.9152,34.58,9.26,97,14,2.72,RU,1722819477
563,tambura,5.6,27.4667,19.66,98,80,1.93,SS,1722819478
564,panacan,9.2463,118.4082,28.95,70,100,1.71,PH,1722819479
565,nadi,-17.8,177.4167,25.0,65,40,6.17,FJ,1722819480
566,yola,9.2,12.4833,24.72,79,100,0.92,NG,1722819481
567,zhangzhou,24.5133,117.6556,30.96,76,100,1.0,CN,1722819483
568,knyaze-volkonskoye,48.4642,135.4567,23.19,73,100,3.76,RU,1722819484
569,bei'an,46.4398,126.2373,23.43,97,100,4.75,CN,1722819485
570,tadine,-21.55,167.8833,22.03,53,10,6.61,NC,1722819486
571,moyynkum,44.2914,72.9469,26.13,34,0,1.72,KZ,1722819487
572,kushiro,42.975,144.3747,20.53,94,75,3.6,JP,1722819488
573,lillehammer,61.1146,10.4674,11.9,92,90,1.41,NO,1722819489
574,alofi,-19.0595,-169.9187,26.94,78,75,5.14,NU,1722819490
575,upington,-28.4478,21.2561,4.89,79,2,2.93,ZA,1722819491
576,ipua,-20.4381,-48.0122,23.33,50,100,2.96,BR,1722819493
577,taltal,-25.4,-70.4833,14.53,79,1,1.06,CL,1722819494
578,shwebo,22.5667,95.7,24.63,94,100,4.01,MM,1722819495
579,nanning,22.8167,108.3167,27.25,79,9,1.22,CN,1722819496
580,puerto penasco,31.3167,-113.5333,33.28,76,1,2.24,MX,1722819497
581,al faw,29.9776,48.4741,31.0,28,1,5.23,IQ,1722819498
582,al kharijah,25.4514,30.5464,30.74,16,26,3.48,EG,1722819499
583,nurlat,54.4277,50.8051,15.91,96,100,2.16,RU,1722819500
584,tofol,5.3248,163.0078,31.88,62,75,4.12,FM,1722819501
585,bathurst,-33.4166,149.5806,8.31,78,100,0.32,AU,1722819503
586,florence,43.7667,11.25,25.85,62,0,0.51,IT,1722819454
587,salahonda,2.1019,-78.7217,25.94,84,100,8.06,CO,1722819505
588,sal rei,16.1833,-22.9167,25.64,86,95,4.0,CV,1722819506
